% program   : RTKPOST ver.2.4.2
% inp file  : C:\Users\gck\Desktop\lehre\Grundlagen der Navigation\MATLAB\easy\data\dlf5248h.15o
% inp file  : C:\Users\gck\Desktop\lehre\Grundlagen der Navigation\MATLAB\easy\data\dlf5248h.15n
% obs start : 2015/09/05 07:00:00.0 GPST (week1860 543600.0s)
% obs end   : 2015/09/05 07:59:59.0 GPST (week1860 547199.0s)
% pos mode  : single
% elev mask : 15.0 deg
% ionos opt : off
% tropo opt : off
% ephemeris : broadcast
%
% (lat/lon/height=WGS84/ellipsoidal,Q=1:fix,2:float,3:sbas,4:dgps,5:single,6:ppp,ns=# of satellites)
%  GPST                  latitude(deg) longitude(deg)  height(m)   Q  ns   sdn(m)   sde(m)   sdu(m)  sdne(m)  sdeu(m)  sdun(m) age(s)  ratio
2015/09/05 07:00:00.001   51.986032177    4.387443725    84.0603   5   8   4.8061   3.8398  11.9228  -1.2256   3.0919   0.8761   0.00    0.0
2015/09/05 07:00:01.001   51.986032886    4.387443813    84.0485   5   8   4.8060   3.8400  11.9225  -1.2264   3.0925   0.8728   0.00    0.0
2015/09/05 07:00:02.001   51.986031348    4.387446183    84.3356   5   8   4.8058   3.8402  11.9223  -1.2272   3.0931   0.8696   0.00    0.0
2015/09/05 07:00:03.001   51.986028052    4.387445700    84.5010   5   8   4.8057   3.8404  11.9221  -1.2280   3.0938   0.8663   0.00    0.0
2015/09/05 07:00:04.001   51.986026550    4.387445471    84.2386   5   8   4.8056   3.8406  11.9219  -1.2289   3.0944   0.8630   0.00    0.0
2015/09/05 07:00:05.001   51.986026563    4.387444290    84.2043   5   8   4.8054   3.8408  11.9216  -1.2297   3.0950   0.8597   0.00    0.0
2015/09/05 07:00:06.001   51.986025821    4.387444910    84.0215   5   8   4.8053   3.8410  11.9214  -1.2305   3.0956   0.8564   0.00    0.0
2015/09/05 07:00:07.001   51.986025274    4.387443700    84.0783   5   8   4.8051   3.8413  11.9212  -1.2313   3.0962   0.8531   0.00    0.0
2015/09/05 07:00:08.001   51.986025953    4.387442414    83.9908   5   8   4.8050   3.8415  11.9210  -1.2321   3.0968   0.8497   0.00    0.0
2015/09/05 07:00:09.001   51.986025758    4.387443647    84.2096   5   8   4.8048   3.8417  11.9207  -1.2329   3.0975   0.8464   0.00    0.0
2015/09/05 07:00:10.001   51.986025035    4.387445140    84.4644   5   8   4.8047   3.8419  11.9205  -1.2338   3.0981   0.8430   0.00    0.0
2015/09/05 07:00:11.001   51.986024243    4.387446921    84.5145   5   8   4.8046   3.8421  11.9203  -1.2346   3.0987   0.8396   0.00    0.0
2015/09/05 07:00:12.001   51.986024096    4.387449448    84.7315   5   8   4.8044   3.8423  11.9200  -1.2354   3.0993   0.8362   0.00    0.0
2015/09/05 07:00:13.001   51.986025348    4.387450545    84.7088   5   8   4.8043   3.8425  11.9198  -1.2362   3.0999   0.8328   0.00    0.0
2015/09/05 07:00:14.001   51.986025556    4.387450204    84.5395   5   8   4.8041   3.8427  11.9195  -1.2370   3.1005   0.8294   0.00    0.0
2015/09/05 07:00:15.001   51.986023571    4.387451190    84.3853   5   8   4.8040   3.8429  11.9193  -1.2378   3.1011   0.8259   0.00    0.0
2015/09/05 07:00:16.001   51.986022507    4.387450629    84.0081   5   8   4.8039   3.8431  11.9191  -1.2387   3.1018   0.8225   0.00    0.0
2015/09/05 07:00:17.001   51.986023046    4.387450735    83.8149   5   8   4.8037   3.8433  11.9188  -1.2395   3.1024   0.8190   0.00    0.0
2015/09/05 07:00:18.001   51.986022087    4.387451342    83.9960   5   8   4.8036   3.8435  11.9186  -1.2403   3.1030   0.8155   0.00    0.0
2015/09/05 07:00:19.001   51.986022072    4.387448901    83.9681   5   8   4.8034   3.8437  11.9183  -1.2411   3.1036   0.8120   0.00    0.0
2015/09/05 07:00:20.001   51.986023095    4.387448484    83.7396   5   8   4.8033   3.8439  11.9181  -1.2419   3.1042   0.8084   0.00    0.0
2015/09/05 07:00:21.001   51.986023978    4.387448998    83.5467   5   8   4.8031   3.8442  11.9178  -1.2427   3.1048   0.8049   0.00    0.0
2015/09/05 07:00:22.001   51.986025019    4.387448636    82.9829   5   8   4.8030   3.8444  11.9176  -1.2435   3.1054   0.8013   0.00    0.0
2015/09/05 07:00:23.001   51.986025917    4.387448588    82.9630   5   8   4.8029   3.8446  11.9173  -1.2443   3.1060   0.7977   0.00    0.0
2015/09/05 07:00:24.001   51.986026517    4.387449432    83.3215   5   8   4.8027   3.8448  11.9171  -1.2451   3.1066   0.7941   0.00    0.0
2015/09/05 07:00:25.001   51.986028309    4.387449844    83.7054   5   8   4.8026   3.8450  11.9168  -1.2460   3.1072   0.7905   0.00    0.0
2015/09/05 07:00:26.001   51.986029685    4.387450020    83.7989   5   8   4.8024   3.8452  11.9165  -1.2468   3.1079   0.7869   0.00    0.0
2015/09/05 07:00:27.001   51.986031027    4.387449073    84.1997   5   8   4.8023   3.8454  11.9163  -1.2476   3.1085   0.7832   0.00    0.0
2015/09/05 07:00:28.001   51.986030225    4.387449693    84.7258   5   8   4.8022   3.8456  11.9160  -1.2484   3.1091   0.7795   0.00    0.0
2015/09/05 07:00:29.001   51.986029121    4.387450527    85.2194   5   8   4.8020   3.8458  11.9157  -1.2492   3.1097   0.7758   0.00    0.0
2015/09/05 07:00:30.001   51.986028574    4.387450402    85.2734   5   8   4.8019   3.8460  11.9155  -1.2500   3.1103   0.7721   0.00    0.0
2015/09/05 07:00:31.001   51.986026975    4.387449537    85.0360   5   8   4.8017   3.8462  11.9152  -1.2508   3.1109   0.7684   0.00    0.0
2015/09/05 07:00:32.001   51.986025369    4.387448478    85.2045   5   8   4.8016   3.8464  11.9149  -1.2516   3.1115   0.7646   0.00    0.0
2015/09/05 07:00:33.001   51.986025466    4.387446211    85.3267   5   8   4.8015   3.8466  11.9147  -1.2524   3.1121   0.7609   0.00    0.0
2015/09/05 07:00:34.001   51.986024821    4.387444295    85.5898   5   8   4.8013   3.8469  11.9144  -1.2532   3.1127   0.7571   0.00    0.0
2015/09/05 07:00:35.001   51.986023990    4.387448509    85.5413   5   8   4.8012   3.8471  11.9141  -1.2540   3.1133   0.7533   0.00    0.0
2015/09/05 07:00:36.001   51.986026277    4.387449240    85.4483   5   8   4.8010   3.8473  11.9138  -1.2548   3.1139   0.7494   0.00    0.0
2015/09/05 07:00:37.001   51.986026136    4.387451634    85.3911   5   8   4.8009   3.8475  11.9135  -1.2557   3.1145   0.7456   0.00    0.0
2015/09/05 07:00:38.001   51.986026021    4.387453197    85.6432   5   8   4.8008   3.8477  11.9133  -1.2565   3.1151   0.7417   0.00    0.0
2015/09/05 07:00:39.001   51.986023474    4.387454778    85.4449   5   8   4.8006   3.8479  11.9130  -1.2573   3.1157   0.7378   0.00    0.0
2015/09/05 07:00:40.001   51.986022863    4.387454957    85.1298   5   8   4.8005   3.8481  11.9127  -1.2581   3.1163   0.7339   0.00    0.0
2015/09/05 07:00:41.001   51.986022343    4.387453659    84.7407   5   8   4.8003   3.8483  11.9124  -1.2589   3.1169   0.7299   0.00    0.0
2015/09/05 07:00:42.001   51.986023143    4.387451251    84.6850   5   8   4.8002   3.8485  11.9121  -1.2597   3.1175   0.7259   0.00    0.0
2015/09/05 07:00:43.001   51.986022411    4.387451172    84.7588   5   8   4.8001   3.8487  11.9118  -1.2605   3.1181   0.7220   0.00    0.0
2015/09/05 07:00:44.001   51.986022504    4.387450927    84.7512   5   8   4.7999   3.8489  11.9115  -1.2613   3.1187   0.7179   0.00    0.0
2015/09/05 07:00:45.001   51.986024649    4.387449444    84.7909   5   8   4.7998   3.8491  11.9112  -1.2621   3.1193   0.7139   0.00    0.0
2015/09/05 07:00:46.001   51.986025938    4.387449480    85.0090   5   8   4.7996   3.8494  11.9109  -1.2629   3.1199   0.7098   0.00    0.0
2015/09/05 07:00:47.001   51.986026839    4.387448765    85.3330   5   8   4.7995   3.8496  11.9106  -1.2637   3.1205   0.7057   0.00    0.0
2015/09/05 07:00:48.001   51.986027810    4.387450660    85.4724   5   8   4.7994   3.8498  11.9103  -1.2645   3.1211   0.7016   0.00    0.0
2015/09/05 07:00:49.001   51.986028330    4.387449433    85.3993   5   8   4.7992   3.8500  11.9100  -1.2653   3.1217   0.6975   0.00    0.0
2015/09/05 07:00:50.001   51.986027892    4.387450086    85.3540   5   8   4.7991   3.8502  11.9097  -1.2661   3.1223   0.6933   0.00    0.0
2015/09/05 07:00:51.001   51.986029713    4.387450382    85.1318   5   8   4.7989   3.8504  11.9094  -1.2669   3.1229   0.6891   0.00    0.0
2015/09/05 07:00:52.001   51.986029245    4.387448167    84.8112   5   8   4.7988   3.8506  11.9091  -1.2677   3.1235   0.6849   0.00    0.0
2015/09/05 07:00:53.001   51.986028840    4.387446218    84.6679   5   8   4.7987   3.8508  11.9088  -1.2685   3.1241   0.6806   0.00    0.0
2015/09/05 07:00:54.001   51.986027299    4.387446054    84.3736   5   8   4.7985   3.8510  11.9085  -1.2693   3.1247   0.6764   0.00    0.0
2015/09/05 07:00:55.001   51.986024299    4.387446101    84.4684   5   8   4.7984   3.8512  11.9082  -1.2701   3.1253   0.6721   0.00    0.0
2015/09/05 07:00:56.001   51.986022280    4.387447248    84.5102   5   8   4.7983   3.8514  11.9079  -1.2709   3.1259   0.6677   0.00    0.0
2015/09/05 07:00:57.001   51.986023693    4.387449438    84.7232   5   8   4.7981   3.8517  11.9076  -1.2717   3.1265   0.6634   0.00    0.0
2015/09/05 07:00:58.001   51.986024574    4.387449882    84.8654   5   8   4.7980   3.8519  11.9072  -1.2725   3.1271   0.6590   0.00    0.0
2015/09/05 07:00:59.001   51.986025732    4.387449982    84.9537   5   8   4.7978   3.8521  11.9069  -1.2733   3.1277   0.6545   0.00    0.0
2015/09/05 07:01:00.001   51.986024984    4.387453536    84.8946   5   8   4.7977   3.8523  11.9066  -1.2741   3.1283   0.6501   0.00    0.0
2015/09/05 07:01:01.001   51.986024681    4.387457055    84.8837   5   8   4.7976   3.8525  11.9063  -1.2749   3.1289   0.6456   0.00    0.0
2015/09/05 07:01:02.001   51.986023337    4.387458950    85.0699   5   8   4.7974   3.8527  11.9060  -1.2757   3.1295   0.6411   0.00    0.0
2015/09/05 07:01:03.001   51.986022156    4.387460396    84.8769   5   8   4.7973   3.8529  11.9056  -1.2765   3.1301   0.6365   0.00    0.0
2015/09/05 07:01:04.001   51.986022511    4.387462189    84.7121   5   8   4.7972   3.8531  11.9053  -1.2773   3.1306   0.6319   0.00    0.0
2015/09/05 07:01:05.001   51.986023480    4.387460605    84.7826   5   8   4.7970   3.8533  11.9050  -1.2781   3.1312   0.6273   0.00    0.0
2015/09/05 07:01:06.001   51.986024766    4.387456612    84.5761   5   8   4.7969   3.8535  11.9047  -1.2789   3.1318   0.6226   0.00    0.0
2015/09/05 07:01:07.001   51.986024820    4.387452418    84.3767   5   8   4.7967   3.8537  11.9043  -1.2797   3.1324   0.6179   0.00    0.0
2015/09/05 07:01:08.001   51.986024926    4.387448938    84.4375   5   8   4.7966   3.8540  11.9040  -1.2805   3.1330   0.6132   0.00    0.0
2015/09/05 07:01:09.001   51.986025186    4.387447785    84.4370   5   8   4.7965   3.8542  11.9036  -1.2812   3.1336   0.6084   0.00    0.0
2015/09/05 07:01:10.001   51.986025723    4.387447163    84.2219   5   8   4.7963   3.8544  11.9033  -1.2820   3.1342   0.6036   0.00    0.0
2015/09/05 07:01:11.001   51.986024499    4.387446633    84.2828   5   8   4.7962   3.8546  11.9030  -1.2828   3.1348   0.5987   0.00    0.0
2015/09/05 07:01:12.001   51.986024717    4.387446903    84.4972   5   8   4.7961   3.8548  11.9026  -1.2836   3.1354   0.5938   0.00    0.0
2015/09/05 07:01:13.001   51.986024390    4.387446537    84.3860   5   8   4.7959   3.8550  11.9023  -1.2844   3.1360   0.5889   0.00    0.0
2015/09/05 07:01:14.001   51.986024604    4.387446511    84.4779   5   8   4.7958   3.8552  11.9019  -1.2852   3.1365   0.5839   0.00    0.0
2015/09/05 07:01:15.001   51.986024342    4.387444082    84.3956   5   8   4.7956   3.8554  11.9016  -1.2860   3.1371   0.5789   0.00    0.0
2015/09/05 07:01:16.001   51.986027138    4.387441342    84.4029   5   8   4.7955   3.8556  11.9012  -1.2868   3.1377   0.5738   0.00    0.0
2015/09/05 07:01:17.001   51.986028942    4.387439149    84.4054   5   8   4.7954   3.8558  11.9009  -1.2876   3.1383   0.5686   0.00    0.0
2015/09/05 07:01:18.001   51.986029715    4.387437850    84.4126   5   8   4.7952   3.8561  11.9005  -1.2884   3.1389   0.5635   0.00    0.0
2015/09/05 07:01:19.001   51.986028349    4.387436609    84.1556   5   8   4.7951   3.8563  11.9002  -1.2892   3.1395   0.5582   0.00    0.0
2015/09/05 07:01:20.001   51.986027714    4.387436623    84.0713   5   8   4.7950   3.8565  11.8998  -1.2900   3.1401   0.5530   0.00    0.0
2015/09/05 07:01:21.001   51.986027604    4.387437239    84.3075   5   8   4.7948   3.8567  11.8995  -1.2908   3.1407   0.5476   0.00    0.0
2015/09/05 07:01:22.001   51.986027439    4.387438223    84.2596   5   8   4.7947   3.8569  11.8991  -1.2915   3.1412   0.5423   0.00    0.0
2015/09/05 07:01:23.001   51.986027167    4.387439816    84.3220   5   8   4.7946   3.8571  11.8988  -1.2923   3.1418   0.5368   0.00    0.0
2015/09/05 07:01:24.001   51.986027004    4.387441086    84.0446   5   8   4.7944   3.8573  11.8984  -1.2931   3.1424   0.5313   0.00    0.0
2015/09/05 07:01:25.001   51.986027062    4.387441568    84.0642   5   8   4.7943   3.8575  11.8980  -1.2939   3.1430   0.5258   0.00    0.0
2015/09/05 07:01:26.001   51.986027504    4.387442656    83.5873   5   8   4.7942   3.8577  11.8977  -1.2947   3.1436   0.5202   0.00    0.0
2015/09/05 07:01:27.001   51.986027564    4.387443639    83.4884   5   8   4.7940   3.8580  11.8973  -1.2955   3.1441   0.5145   0.00    0.0
2015/09/05 07:01:28.001   51.986027882    4.387443356    83.2847   5   8   4.7939   3.8582  11.8969  -1.2963   3.1447   0.5087   0.00    0.0
2015/09/05 07:01:29.001   51.986026195    4.387440159    83.3459   5   8   4.7937   3.8584  11.8966  -1.2971   3.1453   0.5029   0.00    0.0
2015/09/05 07:01:30.001   51.986025739    4.387438954    83.5573   5   8   4.7936   3.8586  11.8962  -1.2978   3.1459   0.4970   0.00    0.0
2015/09/05 07:01:31.001   51.986023601    4.387438086    83.2638   5   8   4.7935   3.8588  11.8958  -1.2986   3.1465   0.4911   0.00    0.0
2015/09/05 07:01:32.001   51.986022827    4.387440687    83.1551   5   8   4.7933   3.8590  11.8954  -1.2994   3.1471   0.4851   0.00    0.0
2015/09/05 07:01:33.001   51.986022316    4.387439280    83.1838   5   8   4.7932   3.8592  11.8951  -1.3002   3.1476   0.4790   0.00    0.0
2015/09/05 07:01:34.001   51.986024455    4.387436078    83.3705   5   8   4.7931   3.8594  11.8947  -1.3010   3.1482   0.4728   0.00    0.0
2015/09/05 07:01:35.001   51.986023696    4.387438896    83.7682   5   8   4.7929   3.8596  11.8943  -1.3018   3.1488   0.4665   0.00    0.0
2015/09/05 07:01:36.001   51.986023083    4.387440667    83.9161   5   8   4.7928   3.8598  11.8939  -1.3026   3.1494   0.4601   0.00    0.0
2015/09/05 07:01:37.001   51.986024634    4.387440147    84.1683   5   8   4.7927   3.8601  11.8935  -1.3033   3.1499   0.4537   0.00    0.0
2015/09/05 07:01:38.001   51.986025340    4.387440864    84.3096   5   8   4.7925   3.8603  11.8932  -1.3041   3.1505   0.4471   0.00    0.0
2015/09/05 07:01:39.001   51.986027325    4.387440978    84.2934   5   8   4.7924   3.8605  11.8928  -1.3049   3.1511   0.4405   0.00    0.0
2015/09/05 07:01:40.001   51.986028501    4.387441305    84.3700   5   8   4.7923   3.8607  11.8924  -1.3057   3.1517   0.4337   0.00    0.0
2015/09/05 07:01:41.001   51.986029231    4.387441083    84.3043   5   8   4.7921   3.8609  11.8920  -1.3065   3.1523   0.4268   0.00    0.0
2015/09/05 07:01:42.001   51.986029908    4.387443802    84.2266   5   8   4.7920   3.8611  11.8916  -1.3073   3.1528   0.4199   0.00    0.0
2015/09/05 07:01:43.001   51.986031374    4.387446399    84.0022   5   8   4.7919   3.8613  11.8912  -1.3080   3.1534   0.4128   0.00    0.0
2015/09/05 07:01:44.001   51.986030497    4.387445730    84.1143   5   8   4.7917   3.8615  11.8908  -1.3088   3.1540   0.4056   0.00    0.0
2015/09/05 07:01:45.001   51.986029055    4.387441762    84.1320   5   8   4.7916   3.8617  11.8904  -1.3096   3.1546   0.3982   0.00    0.0
2015/09/05 07:01:46.001   51.986027898    4.387440153    84.4417   5   8   4.7915   3.8620  11.8900  -1.3104   3.1551   0.3907   0.00    0.0
2015/09/05 07:01:47.001   51.986027559    4.387440574    84.7722   5   8   4.7913   3.8622  11.8896  -1.3112   3.1557   0.3831   0.00    0.0
2015/09/05 07:01:48.001   51.986028185    4.387440595    84.5052   5   8   4.7912   3.8624  11.8892  -1.3119   3.1563   0.3753   0.00    0.0
2015/09/05 07:01:49.001   51.986027526    4.387442347    84.4130   5   8   4.7911   3.8626  11.8888  -1.3127   3.1568   0.3673   0.00    0.0
2015/09/05 07:01:50.001   51.986027973    4.387442806    84.6307   5   8   4.7909   3.8628  11.8884  -1.3135   3.1574   0.3591   0.00    0.0
2015/09/05 07:01:51.001   51.986028774    4.387444105    84.9477   5   8   4.7908   3.8630  11.8880  -1.3143   3.1580   0.3508   0.00    0.0
2015/09/05 07:01:52.001   51.986029985    4.387445544    85.1718   5   8   4.7907   3.8632  11.8876  -1.3151   3.1586   0.3422   0.00    0.0
2015/09/05 07:01:53.001   51.986031564    4.387446157    85.0351   5   8   4.7905   3.8634  11.8872  -1.3158   3.1591   0.3335   0.00    0.0
2015/09/05 07:01:54.001   51.986031705    4.387445090    84.7544   5   8   4.7904   3.8637  11.8867  -1.3166   3.1597   0.3244   0.00    0.0
2015/09/05 07:01:55.001   51.986029502    4.387440225    84.6369   5   8   4.7903   3.8639  11.8863  -1.3174   3.1603   0.3152   0.00    0.0
2015/09/05 07:01:56.001   51.986030559    4.387436808    84.5563   5   8   4.7901   3.8641  11.8859  -1.3182   3.1608   0.3056   0.00    0.0
2015/09/05 07:01:57.001   51.986031097    4.387434100    84.1421   5   8   4.7900   3.8643  11.8855  -1.3190   3.1614   0.2958   0.00    0.0
2015/09/05 07:01:58.001   51.986030652    4.387435075    84.0350   5   8   4.7899   3.8645  11.8851  -1.3197   3.1620   0.2855   0.00    0.0
2015/09/05 07:01:59.001   51.986029504    4.387437699    83.8042   5   8   4.7897   3.8647  11.8847  -1.3205   3.1625   0.2750   0.00    0.0
2015/09/05 07:02:00.001   51.986029152    4.387438820    83.7559   5   8   4.7896   3.8649  11.8842  -1.3213   3.1631   0.2639   0.00    0.0
2015/09/05 07:02:01.001   51.986028651    4.387441048    84.0236   5   8   4.7895   3.8651  11.8838  -1.3221   3.1637   0.2524   0.00    0.0
2015/09/05 07:02:02.001   51.986028924    4.387440779    84.0527   5   8   4.7893   3.8653  11.8834  -1.3228   3.1642   0.2404   0.00    0.0
2015/09/05 07:02:03.001   51.986028775    4.387441374    84.0164   5   8   4.7892   3.8656  11.8830  -1.3236   3.1648   0.2277   0.00    0.0
2015/09/05 07:02:04.001   51.986029135    4.387441053    83.9772   5   8   4.7891   3.8658  11.8825  -1.3244   3.1654   0.2142   0.00    0.0
2015/09/05 07:02:05.001   51.986027944    4.387439980    83.7879   5   8   4.7889   3.8660  11.8821  -1.3252   3.1659   0.1999   0.00    0.0
2015/09/05 07:02:06.001   51.986026288    4.387439895    83.7717   5   8   4.7888   3.8662  11.8817  -1.3259   3.1665   0.1844   0.00    0.0
2015/09/05 07:02:07.001   51.986026104    4.387441199    83.8573   5   8   4.7887   3.8664  11.8812  -1.3267   3.1671   0.1675   0.00    0.0
2015/09/05 07:02:08.001   51.986026521    4.387441215    83.4537   5   8   4.7885   3.8666  11.8808  -1.3275   3.1676   0.1486   0.00    0.0
2015/09/05 07:02:09.001   51.986026157    4.387441985    83.2086   5   8   4.7884   3.8668  11.8803  -1.3283   3.1682   0.1270   0.00    0.0
2015/09/05 07:02:10.001   51.986026167    4.387441704    83.0818   5   8   4.7883   3.8670  11.8799  -1.3290   3.1688   0.1009   0.00    0.0
2015/09/05 07:02:11.001   51.986024832    4.387442740    83.0375   5   8   4.7881   3.8673  11.8795  -1.3298   3.1693   0.0649   0.00    0.0
2015/09/05 07:02:12.001   51.986025522    4.387443262    83.2936   5   8   4.7880   3.8675  11.8790  -1.3306   3.1699  -0.0418   0.00    0.0
2015/09/05 07:02:13.001   51.986025868    4.387445254    83.8671   5   8   4.7879   3.8677  11.8786  -1.3314   3.1704  -0.0878   0.00    0.0
2015/09/05 07:02:14.001   51.986024278    4.387445886    84.4733   5   8   4.7877   3.8679  11.8781  -1.3321   3.1710  -0.1169   0.00    0.0
2015/09/05 07:02:15.001   51.986024507    4.387448108    84.8394   5   8   4.7876   3.8681  11.8777  -1.3329   3.1716  -0.1401   0.00    0.0
2015/09/05 07:02:16.001   51.986025872    4.387446627    85.0956   5   8   4.7875   3.8683  11.8772  -1.3337   3.1721  -0.1600   0.00    0.0
2015/09/05 07:02:17.001   51.986027853    4.387444322    85.0179   5   8   4.7874   3.8685  11.8768  -1.3344   3.1727  -0.1777   0.00    0.0
2015/09/05 07:02:18.001   51.986028938    4.387443538    85.1321   5   8   4.7872   3.8687  11.8763  -1.3352   3.1732  -0.1938   0.00    0.0
2015/09/05 07:02:19.001   51.986029664    4.387440872    85.0085   5   8   4.7871   3.8690  11.8759  -1.3360   3.1738  -0.2086   0.00    0.0
2015/09/05 07:02:20.001   51.986030106    4.387439765    84.9353   5   8   4.7870   3.8692  11.8754  -1.3367   3.1744  -0.2225   0.00    0.0
2015/09/05 07:02:21.001   51.986030962    4.387441260    84.8868   5   8   4.7868   3.8694  11.8749  -1.3375   3.1749  -0.2355   0.00    0.0
2015/09/05 07:02:22.001   51.986030191    4.387441790    84.5251   5   8   4.7867   3.8696  11.8745  -1.3383   3.1755  -0.2479   0.00    0.0
2015/09/05 07:02:23.001   51.986030358    4.387443398    84.0613   5   8   4.7866   3.8698  11.8740  -1.3391   3.1760  -0.2597   0.00    0.0
2015/09/05 07:02:24.001   51.986031261    4.387444463    84.2650   5   8   4.7864   3.8700  11.8736  -1.3398   3.1766  -0.2710   0.00    0.0
2015/09/05 07:02:25.001   51.986032353    4.387443974    84.5827   5   8   4.7863   3.8702  11.8731  -1.3406   3.1771  -0.2818   0.00    0.0
2015/09/05 07:02:26.001   51.986029787    4.387444031    84.9881   5   8   4.7862   3.8704  11.8726  -1.3414   3.1777  -0.2922   0.00    0.0
2015/09/05 07:02:27.001   51.986028298    4.387442152    84.8053   5   8   4.7860   3.8707  11.8722  -1.3421   3.1783  -0.3023   0.00    0.0
2015/09/05 07:02:28.001   51.986026731    4.387438673    84.8967   5   8   4.7859   3.8709  11.8717  -1.3429   3.1788  -0.3120   0.00    0.0
2015/09/05 07:02:29.001   51.986027003    4.387436485    84.7286   5   8   4.7858   3.8711  11.8712  -1.3437   3.1794  -0.3215   0.00    0.0
2015/09/05 07:02:30.001   51.986026838    4.387434049    84.6734   5   8   4.7857   3.8713  11.8707  -1.3444   3.1799  -0.3306   0.00    0.0
2015/09/05 07:02:31.001   51.986026866    4.387433788    84.6738   5   8   4.7855   3.8715  11.8703  -1.3452   3.1805  -0.3396   0.00    0.0
2015/09/05 07:02:32.001   51.986027099    4.387435149    84.7774   5   8   4.7854   3.8717  11.8698  -1.3460   3.1810  -0.3483   0.00    0.0
2015/09/05 07:02:33.001   51.986026986    4.387437116    84.4645   5   8   4.7853   3.8719  11.8693  -1.3467   3.1816  -0.3568   0.00    0.0
2015/09/05 07:02:34.001   51.986028350    4.387438018    84.7466   5   8   4.7851   3.8722  11.8688  -1.3475   3.1821  -0.3651   0.00    0.0
2015/09/05 07:02:35.001   51.986028297    4.387438606    84.6414   5   8   4.7850   3.8724  11.8684  -1.3483   3.1827  -0.3732   0.00    0.0
2015/09/05 07:02:36.001   51.986027194    4.387440102    84.7943   5   8   4.7849   3.8726  11.8679  -1.3490   3.1832  -0.3812   0.00    0.0
2015/09/05 07:02:37.001   51.986026017    4.387440930    84.4698   5   8   4.7847   3.8728  11.8674  -1.3498   3.1838  -0.3890   0.00    0.0
2015/09/05 07:02:38.001   51.986026433    4.387442373    84.4013   5   8   4.7846   3.8730  11.8669  -1.3506   3.1843  -0.3966   0.00    0.0
2015/09/05 07:02:39.001   51.986024996    4.387443431    84.6113   5   8   4.7845   3.8732  11.8664  -1.3513   3.1849  -0.4041   0.00    0.0
2015/09/05 07:02:40.001   51.986024748    4.387442832    84.3914   5   8   4.7844   3.8734  11.8659  -1.3521   3.1854  -0.4115   0.00    0.0
2015/09/05 07:02:41.001   51.986023563    4.387443545    84.3619   5   8   4.7842   3.8736  11.8654  -1.3528   3.1860  -0.4187   0.00    0.0
2015/09/05 07:02:42.001   51.986022814    4.387442143    84.0466   5   8   4.7841   3.8739  11.8649  -1.3536   3.1865  -0.4258   0.00    0.0
2015/09/05 07:02:43.001   51.986022465    4.387440358    84.0629   5   8   4.7840   3.8741  11.8644  -1.3544   3.1871  -0.4328   0.00    0.0
2015/09/05 07:02:44.001   51.986022209    4.387438677    84.1462   5   8   4.7838   3.8743  11.8639  -1.3551   3.1876  -0.4397   0.00    0.0
2015/09/05 07:02:45.001   51.986022327    4.387435544    84.0732   5   8   4.7837   3.8745  11.8634  -1.3559   3.1882  -0.4465   0.00    0.0
2015/09/05 07:02:46.001   51.986023128    4.387432255    83.9351   5   8   4.7836   3.8747  11.8629  -1.3567   3.1887  -0.4532   0.00    0.0
2015/09/05 07:02:47.001   51.986023318    4.387432879    84.0019   5   8   4.7835   3.8749  11.8624  -1.3574   3.1893  -0.4598   0.00    0.0
2015/09/05 07:02:48.001   51.986024201    4.387433684    84.3224   5   8   4.7833   3.8751  11.8619  -1.3582   3.1898  -0.4663   0.00    0.0
2015/09/05 07:02:49.001   51.986025324    4.387436776    84.4394   5   8   4.7832   3.8754  11.8614  -1.3589   3.1904  -0.4727   0.00    0.0
2015/09/05 07:02:50.001   51.986026405    4.387437438    84.4409   5   8   4.7831   3.8756  11.8609  -1.3597   3.1909  -0.4790   0.00    0.0
2015/09/05 07:02:51.001   51.986028361    4.387437835    84.2056   5   8   4.7829   3.8758  11.8604  -1.3605   3.1915  -0.4853   0.00    0.0
2015/09/05 07:02:52.001   51.986028436    4.387439891    83.9067   5   8   4.7828   3.8760  11.8599  -1.3612   3.1920  -0.4914   0.00    0.0
2015/09/05 07:02:53.001   51.986028774    4.387440277    83.9112   5   8   4.7827   3.8762  11.8594  -1.3620   3.1925  -0.4975   0.00    0.0
2015/09/05 07:02:54.001   51.986029337    4.387439425    83.9616   5   8   4.7826   3.8764  11.8589  -1.3627   3.1931  -0.5036   0.00    0.0
2015/09/05 07:02:55.001   51.986029219    4.387438061    83.7145   5   8   4.7824   3.8766  11.8584  -1.3635   3.1936  -0.5095   0.00    0.0
2015/09/05 07:02:56.001   51.986029817    4.387439754    83.7402   5   8   4.7823   3.8769  11.8578  -1.3643   3.1942  -0.5154   0.00    0.0
2015/09/05 07:02:57.001   51.986030103    4.387440251    83.9445   5   8   4.7822   3.8771  11.8573  -1.3650   3.1947  -0.5212   0.00    0.0
2015/09/05 07:02:58.001   51.986030516    4.387439534    84.0756   5   8   4.7821   3.8773  11.8568  -1.3658   3.1953  -0.5270   0.00    0.0
2015/09/05 07:02:59.001   51.986031533    4.387438237    83.7511   5   8   4.7819   3.8775  11.8563  -1.3665   3.1958  -0.5327   0.00    0.0
2015/09/05 07:03:00.001   51.986032449    4.387438036    83.7599   5   8   4.7818   3.8777  11.8558  -1.3673   3.1963  -0.5383   0.00    0.0
2015/09/05 07:03:01.001   51.986029318    4.387440999    83.8305   5   8   4.7817   3.8779  11.8552  -1.3680   3.1969  -0.5439   0.00    0.0
2015/09/05 07:03:02.001   51.986025925    4.387440868    84.0482   5   8   4.7815   3.8781  11.8547  -1.3688   3.1974  -0.5494   0.00    0.0
2015/09/05 07:03:03.001   51.986024040    4.387438163    84.1545   5   8   4.7814   3.8784  11.8542  -1.3696   3.1980  -0.5549   0.00    0.0
2015/09/05 07:03:04.001   51.986024420    4.387435456    84.2112   5   8   4.7813   3.8786  11.8536  -1.3703   3.1985  -0.5603   0.00    0.0
2015/09/05 07:03:05.001   51.986025824    4.387435507    84.3364   5   8   4.7812   3.8788  11.8531  -1.3711   3.1990  -0.5656   0.00    0.0
2015/09/05 07:03:06.001   51.986028304    4.387436058    84.6780   5   8   4.7810   3.8790  11.8526  -1.3718   3.1996  -0.5710   0.00    0.0
2015/09/05 07:03:07.001   51.986030450    4.387437092    85.1580   5   8   4.7809   3.8792  11.8520  -1.3726   3.2001  -0.5762   0.00    0.0
2015/09/05 07:03:08.001   51.986030476    4.387437138    85.1136   5   8   4.7808   3.8794  11.8515  -1.3733   3.2006  -0.5815   0.00    0.0
2015/09/05 07:03:09.001   51.986028581    4.387438625    85.0609   5   8   4.7807   3.8796  11.8510  -1.3741   3.2012  -0.5866   0.00    0.0
2015/09/05 07:03:10.001   51.986028593    4.387439229    85.0824   5   8   4.7805   3.8799  11.8504  -1.3748   3.2017  -0.5918   0.00    0.0
2015/09/05 07:03:11.001   51.986028041    4.387440902    84.8429   5   8   4.7804   3.8801  11.8499  -1.3756   3.2022  -0.5969   0.00    0.0
2015/09/05 07:03:12.001   51.986027023    4.387441824    84.9983   5   8   4.7803   3.8803  11.8493  -1.3764   3.2028  -0.6019   0.00    0.0
2015/09/05 07:03:13.001   51.986026594    4.387440625    84.9867   5   8   4.7802   3.8805  11.8488  -1.3771   3.2033  -0.6069   0.00    0.0
2015/09/05 07:03:14.001   51.986025039    4.387439882    84.7148   5   8   4.7800   3.8807  11.8483  -1.3779   3.2039  -0.6119   0.00    0.0
2015/09/05 07:03:15.001   51.986025071    4.387438557    84.5407   5   8   4.7799   3.8809  11.8477  -1.3786   3.2044  -0.6168   0.00    0.0
2015/09/05 07:03:16.001   51.986026841    4.387436854    84.4063   5   8   4.7798   3.8811  11.8472  -1.3794   3.2049  -0.6217   0.00    0.0
2015/09/05 07:03:17.001   51.986028817    4.387435196    84.2046   5   8   4.7797   3.8814  11.8466  -1.3801   3.2055  -0.6266   0.00    0.0
2015/09/05 07:03:18.001   51.986028342    4.387436903    84.1810   5   8   4.7795   3.8816  11.8461  -1.3809   3.2060  -0.6314   0.00    0.0
2015/09/05 07:03:19.001   51.986028365    4.387439574    83.8639   5   8   4.7794   3.8818  11.8455  -1.3816   3.2065  -0.6362   0.00    0.0
2015/09/05 07:03:20.001   51.986027512    4.387443726    83.7772   5   8   4.7793   3.8820  11.8449  -1.3824   3.2070  -0.6409   0.00    0.0
2015/09/05 07:03:21.001   51.986026463    4.387446063    84.0420   5   8   4.7792   3.8822  11.8444  -1.3831   3.2076  -0.6456   0.00    0.0
2015/09/05 07:03:22.001   51.986026220    4.387448426    83.9886   5   8   4.7790   3.8824  11.8438  -1.3839   3.2081  -0.6503   0.00    0.0
2015/09/05 07:03:23.001   51.986027149    4.387450116    84.0946   5   8   4.7789   3.8827  11.8433  -1.3846   3.2086  -0.6549   0.00    0.0
2015/09/05 07:03:24.001   51.986028884    4.387449909    84.1012   5   8   4.7788   3.8829  11.8427  -1.3854   3.2092  -0.6596   0.00    0.0
2015/09/05 07:03:25.001   51.986028528    4.387448309    84.3103   5   8   4.7787   3.8831  11.8421  -1.3861   3.2097  -0.6641   0.00    0.0
2015/09/05 07:03:26.001   51.986028598    4.387446931    84.3936   5   8   4.7785   3.8833  11.8416  -1.3869   3.2102  -0.6687   0.00    0.0
2015/09/05 07:03:27.001   51.986028175    4.387446103    84.5808   5   8   4.7784   3.8835  11.8410  -1.3876   3.2108  -0.6732   0.00    0.0
2015/09/05 07:03:28.001   51.986028933    4.387446503    84.6146   5   8   4.7783   3.8837  11.8404  -1.3884   3.2113  -0.6777   0.00    0.0
2015/09/05 07:03:29.001   51.986029865    4.387444957    84.3351   5   8   4.7782   3.8839  11.8399  -1.3891   3.2118  -0.6822   0.00    0.0
2015/09/05 07:03:30.001   51.986030458    4.387443523    84.2334   5   8   4.7780   3.8842  11.8393  -1.3899   3.2123  -0.6866   0.00    0.0
2015/09/05 07:03:31.001   51.986029659    4.387441924    84.4001   5   8   4.7779   3.8844  11.8387  -1.3906   3.2129  -0.6910   0.00    0.0
2015/09/05 07:03:32.001   51.986029688    4.387440760    84.0895   5   8   4.7778   3.8846  11.8381  -1.3914   3.2134  -0.6954   0.00    0.0
2015/09/05 07:03:33.001   51.986030201    4.387441046    84.1199   5   8   4.7777   3.8848  11.8376  -1.3921   3.2139  -0.6998   0.00    0.0
2015/09/05 07:03:34.001   51.986028978    4.387442974    84.4520   5   8   4.7775   3.8850  11.8370  -1.3929   3.2144  -0.7041   0.00    0.0
2015/09/05 07:03:35.001   51.986028055    4.387442803    84.3106   5   8   4.7774   3.8852  11.8364  -1.3936   3.2150  -0.7084   0.00    0.0
2015/09/05 07:03:36.001   51.986026309    4.387443608    84.3435   5   8   4.7773   3.8855  11.8358  -1.3944   3.2155  -0.7127   0.00    0.0
2015/09/05 07:03:37.001   51.986027036    4.387442763    84.0683   5   8   4.7772   3.8857  11.8352  -1.3951   3.2160  -0.7169   0.00    0.0
2015/09/05 07:03:38.001   51.986027296    4.387439981    83.5953   5   8   4.7770   3.8859  11.8346  -1.3959   3.2165  -0.7212   0.00    0.0
2015/09/05 07:03:39.001   51.986025599    4.387441746    83.3863   5   8   4.7769   3.8861  11.8341  -1.3966   3.2171  -0.7254   0.00    0.0
2015/09/05 07:03:40.001   51.986025351    4.387443328    83.5086   5   8   4.7768   3.8863  11.8335  -1.3973   3.2176  -0.7295   0.00    0.0
2015/09/05 07:03:41.001   51.986024567    4.387442748    83.9764   5   8   4.7767   3.8865  11.8329  -1.3981   3.2181  -0.7337   0.00    0.0
2015/09/05 07:03:42.001   51.986023555    4.387443657    83.9503   5   8   4.7765   3.8868  11.8323  -1.3988   3.2186  -0.7378   0.00    0.0
2015/09/05 07:03:43.001   51.986026181    4.387444656    83.7054   5   8   4.7764   3.8870  11.8317  -1.3996   3.2191  -0.7420   0.00    0.0
2015/09/05 07:03:44.001   51.986027843    4.387444891    83.6503   5   8   4.7763   3.8872  11.8311  -1.4003   3.2197  -0.7460   0.00    0.0
2015/09/05 07:03:45.001   51.986028828    4.387445676    84.0126   5   8   4.7762   3.8874  11.8305  -1.4011   3.2202  -0.7501   0.00    0.0
2015/09/05 07:03:46.001   51.986028901    4.387445635    84.0670   5   8   4.7761   3.8876  11.8299  -1.4018   3.2207  -0.7542   0.00    0.0
2015/09/05 07:03:47.001   51.986027527    4.387444443    83.8388   5   8   4.7759   3.8878  11.8293  -1.4026   3.2212  -0.7582   0.00    0.0
2015/09/05 07:03:48.001   51.986025842    4.387445189    83.4220   5   8   4.7758   3.8880  11.8287  -1.4033   3.2217  -0.7622   0.00    0.0
2015/09/05 07:03:49.001   51.986025071    4.387446657    83.4035   5   8   4.7757   3.8883  11.8281  -1.4040   3.2223  -0.7662   0.00    0.0
2015/09/05 07:03:50.001   51.986024415    4.387447155    83.3194   5   8   4.7756   3.8885  11.8275  -1.4048   3.2228  -0.7702   0.00    0.0
2015/09/05 07:03:51.001   51.986023313    4.387446427    83.2196   5   8   4.7754   3.8887  11.8269  -1.4055   3.2233  -0.7741   0.00    0.0
2015/09/05 07:03:52.001   51.986024884    4.387445909    83.2507   5   8   4.7753   3.8889  11.8263  -1.4063   3.2238  -0.7780   0.00    0.0
2015/09/05 07:03:53.001   51.986026273    4.387447349    83.0871   5   8   4.7752   3.8891  11.8257  -1.4070   3.2243  -0.7819   0.00    0.0
2015/09/05 07:03:54.001   51.986027787    4.387450213    83.3040   5   8   4.7751   3.8893  11.8251  -1.4078   3.2248  -0.7858   0.00    0.0
2015/09/05 07:03:55.001   51.986028778    4.387450612    83.2367   5   8   4.7750   3.8896  11.8244  -1.4085   3.2254  -0.7897   0.00    0.0
2015/09/05 07:03:56.001   51.986028497    4.387447141    83.1567   5   8   4.7748   3.8898  11.8238  -1.4092   3.2259  -0.7936   0.00    0.0
2015/09/05 07:03:57.001   51.986028397    4.387443701    82.8467   5   8   4.7747   3.8900  11.8232  -1.4100   3.2264  -0.7974   0.00    0.0
2015/09/05 07:03:58.001   51.986029137    4.387441571    83.0072   5   8   4.7746   3.8902  11.8226  -1.4107   3.2269  -0.8012   0.00    0.0
2015/09/05 07:03:59.001   51.986027710    4.387441283    83.6279   5   8   4.7745   3.8904  11.8220  -1.4115   3.2274  -0.8050   0.00    0.0
2015/09/05 07:04:00.001   51.986027062    4.387441042    83.6382   5   8   4.7743   3.8906  11.8214  -1.4122   3.2279  -0.8088   0.00    0.0
2015/09/05 07:04:01.001   51.986027014    4.387441434    83.8175   5   8   4.7742   3.8909  11.8207  -1.4129   3.2284  -0.8126   0.00    0.0
2015/09/05 07:04:02.001   51.986027324    4.387441030    83.9971   5   8   4.7741   3.8911  11.8201  -1.4137   3.2290  -0.8163   0.00    0.0
2015/09/05 07:04:03.001   51.986026970    4.387440036    84.3834   5   8   4.7740   3.8913  11.8195  -1.4144   3.2295  -0.8201   0.00    0.0
2015/09/05 07:04:04.001   51.986027212    4.387437713    84.5253   5   8   4.7739   3.8915  11.8189  -1.4151   3.2300  -0.8238   0.00    0.0
2015/09/05 07:04:05.001   51.986027133    4.387437487    84.6715   5   8   4.7737   3.8917  11.8182  -1.4159   3.2305  -0.8275   0.00    0.0
2015/09/05 07:04:06.001   51.986027385    4.387438702    84.7242   5   8   4.7736   3.8919  11.8176  -1.4166   3.2310  -0.8312   0.00    0.0
2015/09/05 07:04:07.001   51.986025618    4.387441034    84.9114   5   8   4.7735   3.8922  11.8170  -1.4174   3.2315  -0.8348   0.00    0.0
2015/09/05 07:04:08.001   51.986025290    4.387443873    84.9890   5   8   4.7734   3.8924  11.8163  -1.4181   3.2320  -0.8385   0.00    0.0
2015/09/05 07:04:09.001   51.986025387    4.387444795    84.8660   5   8   4.7733   3.8926  11.8157  -1.4188   3.2325  -0.8421   0.00    0.0
2015/09/05 07:04:10.001   51.986025824    4.387445291    84.8882   5   8   4.7731   3.8928  11.8151  -1.4196   3.2330  -0.8457   0.00    0.0
2015/09/05 07:04:11.001   51.986026590    4.387446942    84.6177   5   8   4.7730   3.8930  11.8144  -1.4203   3.2335  -0.8493   0.00    0.0
2015/09/05 07:04:12.001   51.986027085    4.387447285    84.4928   5   8   4.7729   3.8932  11.8138  -1.4210   3.2341  -0.8529   0.00    0.0
2015/09/05 07:04:13.001   51.986027425    4.387447999    84.0088   5   8   4.7728   3.8935  11.8131  -1.4218   3.2346  -0.8565   0.00    0.0
2015/09/05 07:04:14.001   51.986028376    4.387446892    83.9620   5   8   4.7727   3.8937  11.8125  -1.4225   3.2351  -0.8601   0.00    0.0
2015/09/05 07:04:15.001   51.986029160    4.387444934    83.8763   5   8   4.7725   3.8939  11.8119  -1.4233   3.2356  -0.8636   0.00    0.0
2015/09/05 07:04:16.001   51.986029863    4.387442190    84.0130   5   8   4.7724   3.8941  11.8112  -1.4240   3.2361  -0.8672   0.00    0.0
2015/09/05 07:04:17.001   51.986030395    4.387440765    84.2380   5   8   4.7723   3.8943  11.8106  -1.4247   3.2366  -0.8707   0.00    0.0
2015/09/05 07:04:18.001   51.986030148    4.387441272    84.4066   5   8   4.7722   3.8946  11.8099  -1.4255   3.2371  -0.8742   0.00    0.0
2015/09/05 07:04:19.001   51.986030199    4.387440812    84.4102   5   8   4.7721   3.8948  11.8093  -1.4262   3.2376  -0.8777   0.00    0.0
2015/09/05 07:04:20.001   51.986028310    4.387441644    84.5167   5   8   4.7719   3.8950  11.8086  -1.4269   3.2381  -0.8812   0.00    0.0
2015/09/05 07:04:21.001   51.986027926    4.387441626    84.6516   5   8   4.7718   3.8952  11.8080  -1.4277   3.2386  -0.8846   0.00    0.0
2015/09/05 07:04:22.001   51.986027652    4.387443233    85.0367   5   8   4.7717   3.8954  11.8073  -1.4284   3.2391  -0.8881   0.00    0.0
2015/09/05 07:04:23.001   51.986026959    4.387443206    85.1778   5   8   4.7716   3.8956  11.8066  -1.4291   3.2396  -0.8915   0.00    0.0
2015/09/05 07:04:24.001   51.986026745    4.387443338    85.1593   5   8   4.7715   3.8959  11.8060  -1.4299   3.2401  -0.8950   0.00    0.0
2015/09/05 07:04:25.001   51.986026318    4.387444674    85.0662   5   8   4.7713   3.8961  11.8053  -1.4306   3.2406  -0.8984   0.00    0.0
2015/09/05 07:04:26.001   51.986025520    4.387445486    85.0394   5   8   4.7712   3.8963  11.8047  -1.4313   3.2411  -0.9018   0.00    0.0
2015/09/05 07:04:27.001   51.986026146    4.387446685    85.1968   5   8   4.7711   3.8965  11.8040  -1.4321   3.2416  -0.9052   0.00    0.0
2015/09/05 07:04:28.001   51.986025853    4.387446601    85.3505   5   8   4.7710   3.8967  11.8033  -1.4328   3.2421  -0.9086   0.00    0.0
2015/09/05 07:04:29.001   51.986025002    4.387447460    85.0965   5   8   4.7709   3.8969  11.8027  -1.4335   3.2426  -0.9119   0.00    0.0
2015/09/05 07:04:30.001   51.986025380    4.387450138    85.0584   5   8   4.7707   3.8972  11.8020  -1.4343   3.2431  -0.9153   0.00    0.0
2015/09/05 07:04:31.001   51.986024900    4.387449993    85.1028   5   8   4.7706   3.8974  11.8013  -1.4350   3.2436  -0.9186   0.00    0.0
2015/09/05 07:04:32.001   51.986026069    4.387448937    84.9452   5   8   4.7705   3.8976  11.8007  -1.4357   3.2441  -0.9220   0.00    0.0
2015/09/05 07:04:33.001   51.986026975    4.387448742    84.8733   5   8   4.7704   3.8978  11.8000  -1.4364   3.2446  -0.9253   0.00    0.0
2015/09/05 07:04:34.001   51.986026870    4.387449926    84.9847   5   8   4.7703   3.8980  11.7993  -1.4372   3.2451  -0.9286   0.00    0.0
2015/09/05 07:04:35.001   51.986028255    4.387449599    85.1333   5   8   4.7702   3.8982  11.7986  -1.4379   3.2456  -0.9319   0.00    0.0
2015/09/05 07:04:36.001   51.986028974    4.387448886    85.0499   5   8   4.7700   3.8985  11.7980  -1.4386   3.2461  -0.9352   0.00    0.0
2015/09/05 07:04:37.001   51.986028857    4.387448329    84.8063   5   8   4.7699   3.8987  11.7973  -1.4394   3.2466  -0.9385   0.00    0.0
2015/09/05 07:04:38.001   51.986029060    4.387447237    84.4771   5   8   4.7698   3.8989  11.7966  -1.4401   3.2471  -0.9417   0.00    0.0
2015/09/05 07:04:39.001   51.986027800    4.387445863    84.3540   5   8   4.7697   3.8991  11.7959  -1.4408   3.2476  -0.9450   0.00    0.0
2015/09/05 07:04:40.001   51.986028176    4.387444804    84.0977   5   8   4.7696   3.8993  11.7952  -1.4416   3.2481  -0.9482   0.00    0.0
2015/09/05 07:04:41.001   51.986027809    4.387444546    84.2694   5   8   4.7695   3.8996  11.7945  -1.4423   3.2486  -0.9514   0.00    0.0
2015/09/05 07:04:42.001   51.986027481    4.387444507    84.5723   5   8   4.7693   3.8998  11.7939  -1.4430   3.2491  -0.9547   0.00    0.0
2015/09/05 07:04:43.001   51.986030157    4.387444969    84.9232   5   8   4.7692   3.9000  11.7932  -1.4437   3.2496  -0.9579   0.00    0.0
2015/09/05 07:04:44.001   51.986032288    4.387445600    85.2056   5   8   4.7691   3.9002  11.7925  -1.4445   3.2501  -0.9611   0.00    0.0
2015/09/05 07:04:45.001   51.986032452    4.387446221    85.4693   5   8   4.7690   3.9004  11.7918  -1.4452   3.2506  -0.9643   0.00    0.0
2015/09/05 07:04:46.001   51.986033626    4.387447024    85.4786   5   8   4.7689   3.9006  11.7911  -1.4459   3.2510  -0.9675   0.00    0.0
2015/09/05 07:04:47.001   51.986034235    4.387446693    85.0142   5   8   4.7687   3.9009  11.7904  -1.4467   3.2515  -0.9706   0.00    0.0
2015/09/05 07:04:48.001   51.986033265    4.387447529    84.7714   5   8   4.7686   3.9011  11.7897  -1.4474   3.2520  -0.9738   0.00    0.0
2015/09/05 07:04:49.001   51.986032353    4.387446563    84.3786   5   8   4.7685   3.9013  11.7890  -1.4481   3.2525  -0.9769   0.00    0.0
2015/09/05 07:04:50.001   51.986031565    4.387446025    84.0356   5   8   4.7684   3.9015  11.7883  -1.4488   3.2530  -0.9801   0.00    0.0
2015/09/05 07:04:51.001   51.986030845    4.387446252    83.8238   5   8   4.7683   3.9017  11.7876  -1.4496   3.2535  -0.9832   0.00    0.0
2015/09/05 07:04:52.001   51.986031219    4.387447911    83.7087   5   8   4.7682   3.9020  11.7869  -1.4503   3.2540  -0.9863   0.00    0.0
2015/09/05 07:04:53.001   51.986029494    4.387447551    83.7791   5   8   4.7680   3.9022  11.7862  -1.4510   3.2545  -0.9894   0.00    0.0
2015/09/05 07:04:54.001   51.986029549    4.387447398    83.9480   5   8   4.7679   3.9024  11.7855  -1.4517   3.2550  -0.9925   0.00    0.0
2015/09/05 07:04:55.001   51.986029967    4.387448527    84.2385   5   8   4.7678   3.9026  11.7848  -1.4525   3.2555  -0.9956   0.00    0.0
2015/09/05 07:04:56.001   51.986028461    4.387449447    84.1714   5   8   4.7677   3.9028  11.7841  -1.4532   3.2559  -0.9987   0.00    0.0
2015/09/05 07:04:57.001   51.986027133    4.387451357    84.0372   5   8   4.7676   3.9030  11.7834  -1.4539   3.2564  -1.0018   0.00    0.0
2015/09/05 07:04:58.001   51.986026669    4.387450329    84.2706   5   8   4.7675   3.9033  11.7827  -1.4546   3.2569  -1.0049   0.00    0.0
2015/09/05 07:04:59.001   51.986025799    4.387448814    84.2815   5   8   4.7674   3.9035  11.7819  -1.4554   3.2574  -1.0079   0.00    0.0
2015/09/05 07:05:00.001   51.986024873    4.387447017    84.1524   5   8   4.7672   3.9037  11.7812  -1.4561   3.2579  -1.0110   0.00    0.0
2015/09/05 07:05:01.001   51.986024141    4.387444554    83.6883   5   8   4.7671   3.9039  11.7805  -1.4568   3.2584  -1.0140   0.00    0.0
2015/09/05 07:05:02.001   51.986023320    4.387441963    83.6475   5   8   4.7670   3.9041  11.7798  -1.4575   3.2589  -1.0170   0.00    0.0
2015/09/05 07:05:03.001   51.986024620    4.387441698    84.1706   5   8   4.7669   3.9044  11.7791  -1.4582   3.2593  -1.0200   0.00    0.0
2015/09/05 07:05:04.001   51.986026428    4.387441103    84.0675   5   8   4.7668   3.9046  11.7784  -1.4590   3.2598  -1.0231   0.00    0.0
2015/09/05 07:05:05.001   51.986027603    4.387442391    84.0764   5   8   4.7667   3.9048  11.7776  -1.4597   3.2603  -1.0261   0.00    0.0
2015/09/05 07:05:06.001   51.986027897    4.387445688    84.3708   5   8   4.7665   3.9050  11.7769  -1.4604   3.2608  -1.0291   0.00    0.0
2015/09/05 07:05:07.001   51.986028855    4.387447156    84.3057   5   8   4.7664   3.9052  11.7762  -1.4611   3.2613  -1.0320   0.00    0.0
2015/09/05 07:05:08.001   51.986030210    4.387447415    84.3757   5   8   4.7663   3.9055  11.7755  -1.4619   3.2618  -1.0350   0.00    0.0
2015/09/05 07:05:09.001   51.986031112    4.387449899    84.3769   5   8   4.7662   3.9057  11.7747  -1.4626   3.2622  -1.0380   0.00    0.0
2015/09/05 07:05:10.001   51.986031552    4.387449011    84.6472   5   8   4.7661   3.9059  11.7740  -1.4633   3.2627  -1.0410   0.00    0.0
2015/09/05 07:05:11.001   51.986031203    4.387446575    85.1413   5   8   4.7660   3.9061  11.7733  -1.4640   3.2632  -1.0439   0.00    0.0
2015/09/05 07:05:12.001   51.986031184    4.387444839    85.2550   5   8   4.7659   3.9063  11.7725  -1.4647   3.2637  -1.0468   0.00    0.0
2015/09/05 07:05:13.001   51.986030308    4.387445022    84.9001   5   8   4.7657   3.9066  11.7718  -1.4655   3.2642  -1.0498   0.00    0.0
2015/09/05 07:05:14.001   51.986029624    4.387446819    84.8419   5   8   4.7656   3.9068  11.7711  -1.4662   3.2646  -1.0527   0.00    0.0
2015/09/05 07:05:15.001   51.986029919    4.387448216    85.0079   5   8   4.7655   3.9070  11.7703  -1.4669   3.2651  -1.0556   0.00    0.0
2015/09/05 07:05:16.001   51.986030627    4.387450905    84.7830   5   8   4.7654   3.9072  11.7696  -1.4676   3.2656  -1.0585   0.00    0.0
2015/09/05 07:05:17.001   51.986030338    4.387451555    84.3420   5   8   4.7653   3.9074  11.7689  -1.4683   3.2661  -1.0615   0.00    0.0
2015/09/05 07:05:18.001   51.986030738    4.387453370    84.0034   5   8   4.7652   3.9076  11.7681  -1.4690   3.2665  -1.0644   0.00    0.0
2015/09/05 07:05:19.001   51.986029501    4.387456196    84.1924   5   8   4.7651   3.9079  11.7674  -1.4698   3.2670  -1.0672   0.00    0.0
2015/09/05 07:05:20.001   51.986028667    4.387457216    84.0694   5   8   4.7649   3.9081  11.7666  -1.4705   3.2675  -1.0701   0.00    0.0
2015/09/05 07:05:21.001   51.986028622    4.387456300    84.2103   5   8   4.7648   3.9083  11.7659  -1.4712   3.2680  -1.0730   0.00    0.0
2015/09/05 07:05:22.001   51.986027056    4.387456877    84.8857   5   8   4.7647   3.9085  11.7651  -1.4719   3.2685  -1.0759   0.00    0.0
2015/09/05 07:05:23.001   51.986027083    4.387456518    85.6895   5   8   4.7646   3.9087  11.7644  -1.4726   3.2689  -1.0787   0.00    0.0
2015/09/05 07:05:24.001   51.986027824    4.387453680    85.5645   5   8   4.7645   3.9090  11.7636  -1.4734   3.2694  -1.0816   0.00    0.0
2015/09/05 07:05:25.001   51.986028679    4.387453026    85.5212   5   8   4.7644   3.9092  11.7629  -1.4741   3.2699  -1.0844   0.00    0.0
2015/09/05 07:05:26.001   51.986028594    4.387453607    85.6305   5   8   4.7643   3.9094  11.7621  -1.4748   3.2704  -1.0873   0.00    0.0
2015/09/05 07:05:27.001   51.986028574    4.387451843    85.5687   5   8   4.7642   3.9096  11.7614  -1.4755   3.2708  -1.0901   0.00    0.0
2015/09/05 07:05:28.001   51.986029277    4.387450723    85.5367   5   8   4.7640   3.9098  11.7606  -1.4762   3.2713  -1.0929   0.00    0.0
2015/09/05 07:05:29.001   51.986029448    4.387453005    85.5783   5   8   4.7639   3.9101  11.7599  -1.4769   3.2718  -1.0957   0.00    0.0
2015/09/05 07:05:30.001   51.986030255    4.387453170    85.7076   5   8   4.7638   3.9103  11.7591  -1.4776   3.2722  -1.0985   0.00    0.0
2015/09/05 07:05:31.001   51.986031608    4.387454190    85.8236   5   8   4.7637   3.9105  11.7583  -1.4784   3.2727  -1.1013   0.00    0.0
2015/09/05 07:05:32.001   51.986033934    4.387452888    85.9097   5   8   4.7636   3.9107  11.7576  -1.4791   3.2732  -1.1041   0.00    0.0
2015/09/05 07:05:33.001   51.986035181    4.387450787    86.1160   5   8   4.7635   3.9109  11.7568  -1.4798   3.2737  -1.1069   0.00    0.0
2015/09/05 07:05:34.001   51.986035116    4.387450930    86.1763   5   8   4.7634   3.9112  11.7560  -1.4805   3.2741  -1.1097   0.00    0.0
2015/09/05 07:05:35.001   51.986034308    4.387452228    86.4830   5   8   4.7633   3.9114  11.7553  -1.4812   3.2746  -1.1125   0.00    0.0
2015/09/05 07:05:36.001   51.986033128    4.387452943    86.4692   5   8   4.7631   3.9116  11.7545  -1.4819   3.2751  -1.1153   0.00    0.0
2015/09/05 07:05:37.001   51.986032076    4.387454224    86.4080   5   8   4.7630   3.9118  11.7537  -1.4827   3.2755  -1.1180   0.00    0.0
2015/09/05 07:05:38.001   51.986030594    4.387454926    86.4489   5   8   4.7629   3.9120  11.7530  -1.4834   3.2760  -1.1208   0.00    0.0
2015/09/05 07:05:39.001   51.986029859    4.387453258    86.1642   5   8   4.7628   3.9123  11.7522  -1.4841   3.2765  -1.1235   0.00    0.0
2015/09/05 07:05:40.001   51.986029922    4.387449493    85.9672   5   8   4.7627   3.9125  11.7514  -1.4848   3.2769  -1.1263   0.00    0.0
2015/09/05 07:05:41.001   51.986031440    4.387446753    85.9357   5   8   4.7626   3.9127  11.7506  -1.4855   3.2774  -1.1290   0.00    0.0
2015/09/05 07:05:42.001   51.986032660    4.387445413    85.8319   5   8   4.7625   3.9129  11.7499  -1.4862   3.2779  -1.1317   0.00    0.0
2015/09/05 07:05:43.001   51.986032483    4.387445017    85.6128   5   8   4.7624   3.9131  11.7491  -1.4869   3.2783  -1.1344   0.00    0.0
2015/09/05 07:05:44.001   51.986032706    4.387445309    85.7425   5   8   4.7622   3.9134  11.7483  -1.4876   3.2788  -1.1372   0.00    0.0
2015/09/05 07:05:45.001   51.986032788    4.387445045    85.7246   5   8   4.7621   3.9136  11.7475  -1.4884   3.2793  -1.1399   0.00    0.0
2015/09/05 07:05:46.001   51.986032024    4.387444639    85.8557   5   8   4.7620   3.9138  11.7467  -1.4891   3.2797  -1.1426   0.00    0.0
2015/09/05 07:05:47.001   51.986032368    4.387443231    86.1027   5   8   4.7619   3.9140  11.7459  -1.4898   3.2802  -1.1453   0.00    0.0
2015/09/05 07:05:48.001   51.986032252    4.387441912    86.1844   5   8   4.7618   3.9142  11.7452  -1.4905   3.2807  -1.1480   0.00    0.0
2015/09/05 07:05:49.001   51.986030987    4.387444740    86.4426   5   8   4.7617   3.9145  11.7444  -1.4912   3.2811  -1.1506   0.00    0.0
2015/09/05 07:05:50.001   51.986030681    4.387448240    86.5567   5   8   4.7616   3.9147  11.7436  -1.4919   3.2816  -1.1533   0.00    0.0
2015/09/05 07:05:51.001   51.986030384    4.387449414    85.9534   5   8   4.7615   3.9149  11.7428  -1.4926   3.2820  -1.1560   0.00    0.0
2015/09/05 07:05:52.001   51.986030607    4.387449917    85.5985   5   8   4.7614   3.9151  11.7420  -1.4933   3.2825  -1.1587   0.00    0.0
2015/09/05 07:05:53.001   51.986031214    4.387451625    85.4557   5   8   4.7612   3.9153  11.7412  -1.4940   3.2830  -1.1613   0.00    0.0
2015/09/05 07:05:54.001   51.986030754    4.387453472    85.5336   5   8   4.7611   3.9156  11.7404  -1.4947   3.2834  -1.1640   0.00    0.0
2015/09/05 07:05:55.001   51.986030229    4.387454420    85.3168   5   8   4.7610   3.9158  11.7396  -1.4955   3.2839  -1.1666   0.00    0.0
2015/09/05 07:05:56.001   51.986029308    4.387454286    85.1646   5   8   4.7609   3.9160  11.7388  -1.4962   3.2843  -1.1693   0.00    0.0
2015/09/05 07:05:57.001   51.986028512    4.387453835    84.9241   5   8   4.7608   3.9162  11.7380  -1.4969   3.2848  -1.1719   0.00    0.0
2015/09/05 07:05:58.001   51.986028146    4.387453510    84.8901   5   8   4.7607   3.9164  11.7372  -1.4976   3.2853  -1.1745   0.00    0.0
2015/09/05 07:05:59.001   51.986028038    4.387452608    84.6345   5   8   4.7606   3.9167  11.7364  -1.4983   3.2857  -1.1772   0.00    0.0
2015/09/05 07:06:00.001   51.986027847    4.387449231    84.4758   5   8   4.7605   3.9169  11.7356  -1.4990   3.2862  -1.1798   0.00    0.0
2015/09/05 07:06:01.001   51.986025547    4.387445629    84.2460   5   8   4.7604   3.9171  11.7348  -1.4997   3.2866  -1.1824   0.00    0.0
2015/09/05 07:06:02.001   51.986025067    4.387443831    84.2427   5   8   4.7603   3.9173  11.7340  -1.5004   3.2871  -1.1850   0.00    0.0
2015/09/05 07:06:03.001   51.986024689    4.387441807    84.0740   5   8   4.7601   3.9175  11.7332  -1.5011   3.2876  -1.1876   0.00    0.0
2015/09/05 07:06:04.001   51.986024992    4.387441975    84.1096   5   8   4.7600   3.9178  11.7324  -1.5018   3.2880  -1.1902   0.00    0.0
2015/09/05 07:06:05.001   51.986026473    4.387442261    84.4129   5   8   4.7599   3.9180  11.7316  -1.5025   3.2885  -1.1928   0.00    0.0
2015/09/05 07:06:06.001   51.986026690    4.387444054    85.1052   5   8   4.7598   3.9182  11.7307  -1.5032   3.2889  -1.1954   0.00    0.0
2015/09/05 07:06:07.001   51.986027376    4.387443770    85.1412   5   8   4.7597   3.9184  11.7299  -1.5039   3.2894  -1.1979   0.00    0.0
2015/09/05 07:06:08.001   51.986027749    4.387442761    84.6777   5   8   4.7596   3.9186  11.7291  -1.5046   3.2898  -1.2005   0.00    0.0
2015/09/05 07:06:09.001   51.986027357    4.387443806    84.4698   5   8   4.7595   3.9189  11.7283  -1.5054   3.2903  -1.2031   0.00    0.0
2015/09/05 07:06:10.001   51.986026640    4.387444543    83.9431   5   8   4.7594   3.9191  11.7275  -1.5061   3.2907  -1.2056   0.00    0.0
2015/09/05 07:06:11.001   51.986025911    4.387445558    83.9641   5   8   4.7593   3.9193  11.7267  -1.5068   3.2912  -1.2082   0.00    0.0
2015/09/05 07:06:12.001   51.986023703    4.387446907    83.9072   5   8   4.7592   3.9195  11.7258  -1.5075   3.2916  -1.2108   0.00    0.0
2015/09/05 07:06:13.001   51.986023849    4.387447438    83.9928   5   8   4.7591   3.9198  11.7250  -1.5082   3.2921  -1.2133   0.00    0.0
2015/09/05 07:06:14.001   51.986024798    4.387445690    83.7776   5   8   4.7590   3.9200  11.7242  -1.5089   3.2926  -1.2158   0.00    0.0
2015/09/05 07:06:15.001   51.986025774    4.387443297    83.9948   5   8   4.7588   3.9202  11.7234  -1.5096   3.2930  -1.2184   0.00    0.0
2015/09/05 07:06:16.001   51.986026120    4.387442394    83.9954   5   8   4.7587   3.9204  11.7225  -1.5103   3.2935  -1.2209   0.00    0.0
2015/09/05 07:06:17.001   51.986025397    4.387440949    83.6204   5   8   4.7586   3.9206  11.7217  -1.5110   3.2939  -1.2234   0.00    0.0
2015/09/05 07:06:18.001   51.986024212    4.387440706    83.2525   5   8   4.7585   3.9209  11.7209  -1.5117   3.2944  -1.2260   0.00    0.0
2015/09/05 07:06:19.001   51.986023760    4.387442135    83.4358   5   8   4.7584   3.9211  11.7200  -1.5124   3.2948  -1.2285   0.00    0.0
2015/09/05 07:06:20.001   51.986023939    4.387442370    83.5809   5   8   4.7583   3.9213  11.7192  -1.5131   3.2953  -1.2310   0.00    0.0
2015/09/05 07:06:21.001   51.986025077    4.387441717    83.5924   5   8   4.7582   3.9215  11.7184  -1.5138   3.2957  -1.2335   0.00    0.0
2015/09/05 07:06:22.001   51.986026113    4.387443321    83.6677   5   8   4.7581   3.9217  11.7175  -1.5145   3.2961  -1.2360   0.00    0.0
2015/09/05 07:06:23.001   51.986027345    4.387444621    83.9493   5   8   4.7580   3.9220  11.7167  -1.5152   3.2966  -1.2385   0.00    0.0
2015/09/05 07:06:24.001   51.986029445    4.387445641    84.1544   5   8   4.7579   3.9222  11.7159  -1.5159   3.2970  -1.2410   0.00    0.0
2015/09/05 07:06:25.001   51.986030948    4.387446238    84.5225   5   8   4.7578   3.9224  11.7150  -1.5166   3.2975  -1.2435   0.00    0.0
2015/09/05 07:06:26.001   51.986032443    4.387444819    84.9285   5   8   4.7577   3.9226  11.7142  -1.5173   3.2979  -1.2459   0.00    0.0
2015/09/05 07:06:27.001   51.986033443    4.387445456    85.3948   5   8   4.7576   3.9228  11.7133  -1.5180   3.2984  -1.2484   0.00    0.0
2015/09/05 07:06:28.001   51.986032904    4.387447465    85.6425   5   8   4.7574   3.9231  11.7125  -1.5187   3.2988  -1.2509   0.00    0.0
2015/09/05 07:06:29.001   51.986032719    4.387448254    85.9949   5   8   4.7573   3.9233  11.7116  -1.5194   3.2993  -1.2534   0.00    0.0
2015/09/05 07:06:30.001   51.986031519    4.387449574    85.8929   5   8   4.7572   3.9235  11.7108  -1.5201   3.2997  -1.2558   0.00    0.0
2015/09/05 07:06:31.001   51.986030568    4.387450317    85.6731   5   8   4.7571   3.9237  11.7100  -1.5208   3.3002  -1.2583   0.00    0.0
2015/09/05 07:06:32.001   51.986029615    4.387450831    85.4674   5   8   4.7570   3.9240  11.7091  -1.5215   3.3006  -1.2607   0.00    0.0
2015/09/05 07:06:33.001   51.986028944    4.387449501    85.3305   5   8   4.7569   3.9242  11.7082  -1.5222   3.3010  -1.2632   0.00    0.0
2015/09/05 07:06:34.001   51.986031004    4.387446167    85.2610   5   8   4.7568   3.9244  11.7074  -1.5229   3.3015  -1.2656   0.00    0.0
2015/09/05 07:06:35.001   51.986032836    4.387445146    85.1024   5   8   4.7567   3.9246  11.7065  -1.5236   3.3019  -1.2680   0.00    0.0
2015/09/05 07:06:36.001   51.986033938    4.387444733    84.7026   5   8   4.7566   3.9248  11.7057  -1.5243   3.3024  -1.2705   0.00    0.0
2015/09/05 07:06:37.001   51.986034654    4.387445665    84.4826   5   8   4.7565   3.9251  11.7048  -1.5250   3.3028  -1.2729   0.00    0.0
2015/09/05 07:06:38.001   51.986035116    4.387443295    84.6257   5   8   4.7564   3.9253  11.7040  -1.5257   3.3033  -1.2753   0.00    0.0
2015/09/05 07:06:39.001   51.986033388    4.387443618    84.7499   5   8   4.7563   3.9255  11.7031  -1.5264   3.3037  -1.2777   0.00    0.0
2015/09/05 07:06:40.001   51.986031787    4.387442995    84.8700   5   8   4.7562   3.9257  11.7022  -1.5271   3.3041  -1.2802   0.00    0.0
2015/09/05 07:06:41.001   51.986032361    4.387441699    84.9932   5   8   4.7561   3.9259  11.7014  -1.5278   3.3046  -1.2826   0.00    0.0
2015/09/05 07:06:42.001   51.986030410    4.387442531    85.1400   5   8   4.7560   3.9262  11.7005  -1.5285   3.3050  -1.2850   0.00    0.0
2015/09/05 07:06:43.001   51.986029720    4.387444335    85.1555   5   8   4.7559   3.9264  11.6997  -1.5292   3.3054  -1.2874   0.00    0.0
2015/09/05 07:06:44.001   51.986030181    4.387444981    85.0871   5   8   4.7557   3.9266  11.6988  -1.5299   3.3059  -1.2898   0.00    0.0
2015/09/05 07:06:45.001   51.986030660    4.387444605    85.0654   5   8   4.7556   3.9268  11.6979  -1.5306   3.3063  -1.2922   0.00    0.0
2015/09/05 07:06:46.001   51.986032039    4.387443771    85.1326   5   8   4.7555   3.9271  11.6970  -1.5313   3.3068  -1.2945   0.00    0.0
2015/09/05 07:06:47.001   51.986032998    4.387442618    85.1432   5   8   4.7554   3.9273  11.6962  -1.5320   3.3072  -1.2969   0.00    0.0
2015/09/05 07:06:48.001   51.986033528    4.387441619    85.0258   5   8   4.7553   3.9275  11.6953  -1.5327   3.3076  -1.2993   0.00    0.0
2015/09/05 07:06:49.001   51.986034493    4.387442083    84.9614   5   8   4.7552   3.9277  11.6944  -1.5334   3.3081  -1.3017   0.00    0.0
2015/09/05 07:06:50.001   51.986034499    4.387442233    84.8117   5   8   4.7551   3.9279  11.6936  -1.5341   3.3085  -1.3040   0.00    0.0
2015/09/05 07:06:51.001   51.986033972    4.387442905    84.7126   5   8   4.7550   3.9282  11.6927  -1.5348   3.3089  -1.3064   0.00    0.0
2015/09/05 07:06:52.001   51.986031426    4.387444246    84.7675   5   8   4.7549   3.9284  11.6918  -1.5355   3.3094  -1.3088   0.00    0.0
2015/09/05 07:06:53.001   51.986032012    4.387444632    84.4996   5   8   4.7548   3.9286  11.6909  -1.5361   3.3098  -1.3111   0.00    0.0
2015/09/05 07:06:54.001   51.986031924    4.387443735    84.5193   5   8   4.7547   3.9288  11.6900  -1.5368   3.3102  -1.3135   0.00    0.0
2015/09/05 07:06:55.001   51.986032310    4.387443422    84.4401   5   8   4.7546   3.9291  11.6891  -1.5375   3.3107  -1.3158   0.00    0.0
2015/09/05 07:06:56.001   51.986032188    4.387441314    84.5238   5   8   4.7545   3.9293  11.6883  -1.5382   3.3111  -1.3182   0.00    0.0
2015/09/05 07:06:57.001   51.986031118    4.387441249    84.8623   5   8   4.7544   3.9295  11.6874  -1.5389   3.3115  -1.3205   0.00    0.0
2015/09/05 07:06:58.001   51.986029407    4.387442234    85.1510   5   8   4.7543   3.9297  11.6865  -1.5396   3.3120  -1.3228   0.00    0.0
2015/09/05 07:06:59.001   51.986028755    4.387443259    85.6843   5   8   4.7542   3.9299  11.6856  -1.5403   3.3124  -1.3252   0.00    0.0
